{
  "professionals": [
    {
      "id": 1,
      "name": "John Doe",
      "specialty": "Plumber",
      "location": {
        "city": "London",
        "coordinates": {
          "lat": 51.5074,
          "lng": -0.1278
        }
      }
    },
    {
      "id": 2,
      "name": "Jane Smith",
      "specialty": "Electrician",
      "location": {
        "city": "Manchester",
        "coordinates": {
          "lat": 53.4808,
          "lng": -2.2426
        }
      }
    },
    {
      "id": 3,
      "name": "Alice Johnson",
      "specialty": "Carpenter",
      "location": {
        "city": "Bristol",
        "coordinates": {
          "lat": 51.4545,
          "lng": -2.5879
        }
      }
    },
    {
      "id": 4,
      "name": "Bob Williams",
      "specialty": "Painter",
      "location": {
        "city": "Liverpool",
        "coordinates": {
          "lat": 53.4084,
          "lng": -2.9916
        }
      }
    },
    {
      "id": 5,
      "name": "Charlie Brown",
      "specialty": "Plasterer",
      "location": {
        "city": "Leeds",
        "coordinates": {
          "lat": 53.8008,
          "lng": -1.5491
        }
      }
    },
    {
      "id": 6,
      "name": "David Davis",
      "specialty": "Bricklayer",
      "location": {
        "city": "Sheffield",
        "coordinates": {
          "lat": 53.3811,
          "lng": -1.4701
        }
      }
    },
    {
      "id": 7,
      "name": "Eve Evans",
      "specialty": "Roofer",
      "location": {
        "city": "Edinburgh",
        "coordinates": {
          "lat": 55.9533,
          "lng": -3.1883
        }
      }
    },
    {
      "id": 8,
      "name": "Frank Foster",
      "specialty": "Tiler",
      "location": {
        "city": "Glasgow",
        "coordinates": {
          "lat": 55.8642,
          "lng": -4.2518
        }
      }
    },
    {
      "id": 9,
      "name": "Grace Green",
      "specialty": "Decorator",
      "location": {
        "city": "Birmingham",
        "coordinates": {
          "lat": 52.4862,
          "lng": -1.8904
        }
      }
    },
    {
      "id": 10,
      "name": "Harry Hill",
      "specialty": "Joiner",
      "location": {
        "city": "Newcastle",
        "coordinates": {
          "lat": 54.9784,
          "lng": -1.6174
        }
      }
    },
    {
      "id": 11,
      "name": "Ivy Irving",
      "specialty": "Glazier",
      "location": {
        "city": "Nottingham",
        "coordinates": {
          "lat": 52.9548,
          "lng": -1.1581
        }
      }
    },
    {
      "id": 12,
      "name": "Jack Johnson",
      "specialty": "Landscaper",
      "location": {
        "city": "Leicester",
        "coordinates": {
          "lat": 52.6369,
          "lng": -1.1398
        }
      }
    },
    {
      "id": 13,
      "name": "Katie King",
      "specialty": "Builder",
      "location": {
        "city": "Coventry",
        "coordinates": {
          "lat": 52.4068,
          "lng": -1.5197
        }
      }
    },
    {
      "id": 14,
      "name": "Larry Lloyd",
      "specialty": "Floorer",
      "location": {
        "city": "Cardiff",
        "coordinates": {
          "lat": 51.4816,
          "lng": -3.1791
        }
      }
    }
  ]
}
